City_ID,City,Lat,Lng,Max Temp,Humidity,Cloudiness,Wind Speed,Country,Date
0,bredasdorp,-34.5322,20.0403,63.77,76,100,3.98,ZA,1700369953
1,papatowai,-46.5619,169.4708,55.53,61,22,9.46,NZ,1700369953
2,neya,58.2972,43.8681,18.09,72,60,6.55,RU,1700369954
3,adamstown,-25.066,-130.1015,71.24,87,100,21.16,PN,1700369954
4,keflavik,64.0049,-22.5624,32.43,86,0,8.05,IS,1700369955
5,burang,30.25,81.1667,38.25,22,1,6.67,CN,1700369955
6,bilibino,68.0546,166.4372,-19.68,100,98,3.87,RU,1700369956
7,korhogo,9.45,-5.6333,76.24,77,96,2.53,CI,1700369957
8,amungan,15.3652,119.9582,84.51,58,28,6.87,PH,1700369957
9,waitangi,-43.9535,-176.5597,50.83,95,100,5.01,NZ,1700369958
10,salalah,17.0151,54.0924,80.46,66,6,4.27,OM,1700369958
11,iqaluit,63.7506,-68.5145,24.53,79,100,10.36,CA,1700369958
12,port-aux-francais,-49.35,70.2167,41.25,92,97,23.69,TF,1700369959
13,xai-xai,-25.0519,33.6442,77.58,57,100,7.02,MZ,1700369959
14,dudinka,69.4058,86.1778,-11.38,99,55,7.61,RU,1700369960
15,oltinko'l,40.8011,72.1634,60.04,41,100,2.35,UZ,1700369960
16,badger,64.8,-147.5333,7.05,85,100,3.44,US,1700369961
17,kodiak,57.79,-152.4072,26.11,54,0,8.05,US,1700369961
18,auki,-8.7676,160.7034,82.92,73,74,4.9,SB,1700369962
19,cole harbour,44.6724,-63.4751,44.96,92,100,11.99,CA,1700369962
20,ayora,39.0585,-1.0563,49.64,64,9,4.23,ES,1700369962
21,albany,42.6001,-73.9662,33.8,77,1,1.01,US,1700369963
22,uturoa,-16.7333,-151.4333,78.8,79,57,22.48,PF,1700369963
23,tralee,52.2704,-9.7026,54.01,93,100,18.41,IE,1700369964
24,qaqortoq,60.7167,-46.0333,31.08,99,100,3.8,GL,1700369964
25,holualoa,19.6228,-155.9522,76.84,74,40,10.36,US,1700369964
26,wailua homesteads,22.0669,-159.378,77.43,85,100,12.66,US,1700369965
27,whitehorse,60.7161,-135.0538,9.37,60,100,12.66,CA,1700369965
28,shiyan,32.6475,110.7781,68.02,39,0,7.16,CN,1700369966
29,ulsteinvik,62.3432,5.8487,40.75,66,100,8.99,NO,1700369811
30,hawaiian paradise park,19.5933,-154.9731,74.71,89,100,6.91,US,1700369966
31,caxito,-8.5785,13.6643,74.48,95,76,0.78,AO,1700369967
32,new norfolk,-42.7826,147.0587,65.7,50,93,3.4,AU,1700369967
33,blackmans bay,-43.0167,147.3167,64.53,72,88,6.6,AU,1700369968
34,pitimbu,-7.4706,-34.8086,79.39,83,8,10.11,BR,1700369968
35,necochea,-38.5473,-58.7368,47.5,47,2,12.06,AR,1700369969
36,papao,-17.75,-149.55,82.08,81,68,25.14,PF,1700369969
37,aykhal,66.0,111.5,-8.27,99,78,4.94,RU,1700369969
38,kimbe,-5.5502,150.1429,84.99,71,38,2.44,PG,1700369970
39,harper,4.375,-7.7169,77.97,86,92,4.52,LR,1700369971
40,port alfred,-33.5906,26.891,62.19,98,100,6.8,ZA,1700369971
41,san luis de la loma,17.2706,-100.8939,78.85,88,7,2.44,MX,1700369972
42,ribeira grande,38.5167,-28.7,58.77,73,54,8.99,PT,1700369972
43,avarua,-21.2078,-159.775,75.25,64,75,12.66,CK,1700369972
44,lae,-6.7221,146.9847,90.27,71,38,8.01,PG,1700369973
45,mazagao,-0.115,-51.2894,82.45,90,97,4.81,BR,1700369973
46,ushuaia,-54.8,-68.3,33.46,75,75,21.85,AR,1700369974
47,edinburgh of the seven seas,-37.0676,-12.3116,55.24,84,43,37.4,SH,1700369974
48,puerto aysen,-45.4,-72.7,41.05,100,100,4.34,CL,1700369975
49,ilulissat,69.2167,-51.1,34.52,70,100,15.79,GL,1700369975
50,kushtia,23.9011,89.1221,81.7,55,0,4.94,BD,1700369975
51,udachny,66.4167,112.4,-12.12,99,39,1.3,RU,1700369976
52,izyaslav,50.1195,26.8213,28.89,81,75,3.98,UA,1700369976
53,gulf shores,30.246,-87.7008,63.0,81,0,3.44,US,1700369843
54,hithadhoo,-0.6,73.0833,82.29,78,16,12.62,MV,1700369977
55,nantucket,41.2835,-70.0995,41.05,77,20,11.5,US,1700369978
56,argo,37.6333,22.7333,52.79,54,3,3.56,GR,1700369978
57,yellowknife,62.456,-114.3525,25.41,95,100,13.8,CA,1700369758
58,portland,45.5234,-122.6762,46.62,94,100,8.05,US,1700369963
59,piscu,45.5,27.7333,34.77,72,84,27.31,RO,1700369979
60,mount gambier,-37.8333,140.7667,68.54,48,100,8.63,AU,1700369980
61,howard springs,-12.497,131.047,100.98,46,93,11.9,AU,1700369980
62,dehri,24.8667,84.1833,81.03,51,0,3.62,IN,1700369981
63,puerto natales,-51.7236,-72.4875,32.14,89,8,3.11,CL,1700369981
64,grytviken,-54.2811,-36.5092,33.96,98,100,4.23,GS,1700369982
65,jamestown,42.097,-79.2353,45.99,85,75,9.22,US,1700369696
66,invercargill,-46.4,168.35,58.01,64,46,8.01,NZ,1700369983
67,cockburn town,21.4612,-71.1419,82.09,77,27,14.12,TC,1700369983
68,callao,-12.0667,-77.15,67.71,82,0,8.05,PE,1700369880
69,island harbour,50.724,-1.2758,56.93,86,12,13.0,GB,1700369985
70,kalymnos,36.95,26.9833,54.93,66,40,10.36,GR,1700369986
71,port-vila,-17.7338,168.3219,83.8,70,75,12.66,VU,1700369986
72,qianzhou,28.3167,109.7167,72.21,46,1,1.39,CN,1700369986
73,vilyuysk,63.7553,121.6247,3.0,94,99,3.0,RU,1700369987
74,chalus,36.655,51.4204,56.66,94,20,2.3,IR,1700369987
75,maragogi,-9.0122,-35.2225,75.7,85,6,6.98,BR,1700369988
76,puerto ayora,-0.7393,-90.3518,70.56,96,33,5.14,EC,1700369988
77,timimoun,29.2639,0.231,55.78,35,0,9.22,DZ,1700369721
78,saipan,15.1355,145.701,88.5,79,75,17.27,MP,1700369989
79,port lincoln,-34.7333,135.8667,65.16,60,83,14.09,AU,1700369990
80,satipo,-11.2522,-74.6386,74.64,85,100,2.44,PE,1700369990
81,worland,44.0169,-107.9554,33.15,39,100,3.0,US,1700369990
82,brandon,27.9378,-82.2859,71.47,90,40,5.99,US,1700369991
83,swinoujscie,53.9105,14.2471,39.34,87,100,21.85,PL,1700369991
84,tobruk,32.0836,23.9764,66.54,50,41,29.77,LY,1700369763
85,reggane,26.7158,0.1714,66.9,28,0,11.01,DZ,1700369992
86,santander de quilichao,3.0095,-76.4849,64.56,95,72,2.82,CO,1700369993
87,east london,-33.0153,27.9116,67.14,94,75,5.75,ZA,1700369993
88,inhambane,-23.865,35.3833,77.49,69,41,7.94,MZ,1700369993
89,nema,57.5067,50.5011,19.85,72,27,8.08,RU,1700369994
90,pawai,24.2667,80.1667,78.8,46,0,5.44,IN,1700369994
91,luderitz,-26.6481,15.1594,64.53,63,0,7.78,NA,1700369995
92,okhotsk,59.3833,143.3,12.81,76,91,17.92,RU,1700369995
93,saudarkrokur,65.7461,-19.6394,31.35,78,99,5.93,IS,1700369840
94,suntar,62.1444,117.6319,21.81,95,99,4.94,RU,1700369996
95,north haven,41.3909,-72.8595,38.95,67,0,4.0,US,1700369996
96,coari,-4.085,-63.1414,78.76,77,31,1.88,BR,1700369997
97,hilo,19.7297,-155.09,73.62,89,87,5.01,US,1700369997
98,warrnambool,-38.3833,142.4833,72.36,68,99,8.34,AU,1700369998
99,labytnangi,66.6572,66.4183,-13.9,95,49,4.14,RU,1700369998
100,anadyr,64.75,177.4833,7.3,92,90,6.71,RU,1700369999
101,clear lake,43.138,-93.3794,39.92,57,0,1.86,US,1700369999
102,lazaro cardenas,17.9583,-102.2,78.96,88,11,3.33,MX,1700369999
103,swakopmund,-22.6833,14.5333,62.98,88,0,4.94,NA,1700370000
104,rabaul,-4.1967,152.1721,85.08,70,2,10.87,PG,1700370001
105,arraial do cabo,-22.9661,-42.0278,74.68,92,93,3.91,BR,1700370003
106,talnakh,69.4865,88.3972,-11.79,99,65,1.07,RU,1700370005
107,korla,41.7597,86.1469,41.99,30,100,2.73,CN,1700370006
108,constitucion,-35.3333,-72.4167,51.12,82,76,8.32,CL,1700370008
109,thompson,55.7435,-97.8558,8.76,92,75,2.3,CA,1700370011
110,ponta delgada,37.7333,-25.6667,66.18,72,40,16.11,PT,1700370012
111,tsiombe,-25.3,45.4833,87.49,41,0,2.51,MG,1700370013
112,olonkinbyen,70.9221,-8.7187,31.82,97,100,7.76,SJ,1700370014
113,west island,-12.1568,96.8225,84.18,65,75,12.66,CC,1700370016
114,awjilah,29.1081,21.2869,66.04,65,44,12.03,LY,1700370017
115,ulaangom,49.9811,92.0667,19.27,89,100,1.74,MN,1700369986
116,alesund,62.4723,6.1549,40.75,63,100,12.66,NO,1700370018
117,namibe,-15.1961,12.1522,74.34,82,99,13.56,AO,1700370020
118,hadibu,12.65,54.0333,79.75,78,16,9.35,YE,1700370020
119,huinan,42.6225,126.2614,30.96,72,88,13.38,CN,1700370021
120,xi'an,34.2583,108.9286,56.21,29,0,1.45,CN,1700369959
121,chonchi,-42.6128,-73.8092,49.12,99,87,4.14,CL,1700370023
122,susuman,62.7833,148.1667,-14.53,98,72,3.98,RU,1700370023
123,nemuro,43.3236,145.575,48.34,65,85,21.56,JP,1700370024
124,mocimboa,-11.3167,40.35,85.69,66,18,3.78,MZ,1700370024
125,trzebiatow,54.0615,15.2648,36.86,83,100,22.48,PL,1700370025
126,tual,-5.6667,132.75,83.01,69,41,4.0,ID,1700370025
127,chadan,51.2833,91.5833,15.44,94,100,3.6,RU,1700370026
128,ihosy,-22.4,46.1167,74.68,66,35,6.22,MG,1700369912
129,khandyga,62.6667,135.6,3.74,96,100,4.81,RU,1700370027
130,san clemente,33.427,-117.612,63.99,91,9,3.0,US,1700369760
131,wynyard,-41.0,145.7167,71.11,43,100,8.12,AU,1700370027
132,port mathurin,-19.6833,63.4167,77.97,79,95,14.99,MU,1700370028
133,east ballina,-28.8667,153.5833,78.8,52,54,9.6,AU,1700370030
134,kandyagash,49.4744,57.4233,26.1,60,0,5.12,KZ,1700370031
135,bethel,41.3712,-73.414,38.48,70,0,1.01,US,1700370032
136,touros,-5.1989,-35.4608,78.44,81,20,11.03,BR,1700369926
137,nuku'alofa,-21.1333,-175.2,77.34,73,40,11.5,TO,1700370034
138,nova sintra,14.8667,-24.7167,73.36,64,99,14.74,CV,1700370036
139,lihue,21.9789,-159.3672,78.04,81,90,10.02,US,1700369987
140,tucurui,-3.7661,-49.6725,81.7,64,92,3.15,BR,1700370038
141,hamilton,39.1834,-84.5333,40.98,78,4,1.54,US,1700370004
142,margaret river,-33.95,115.0667,73.4,55,66,21.0,AU,1700370042
143,aden,12.7794,45.0367,82.94,60,100,19.89,YE,1700370043
144,severo-yeniseyskiy,60.3725,93.0408,25.57,94,100,5.99,RU,1700370044
145,salekhard,66.53,66.6019,-13.14,93,31,4.23,RU,1700370044
146,parang,7.3704,124.2697,86.02,75,95,4.47,PH,1700370046
147,cooper's town,26.8667,-77.5167,76.37,77,28,12.62,BS,1700370048
148,vila velha,-20.3297,-40.2925,78.75,86,0,14.97,BR,1700370049
149,vorgashor,67.5833,63.95,-19.5,100,96,2.75,RU,1700369816
150,happy valley-goose bay,53.3168,-60.3315,28.71,86,100,9.22,CA,1700370017
151,stanley,54.868,-1.6985,49.71,90,40,9.22,GB,1700370050
152,dali,25.7,100.1833,62.49,54,57,2.89,CN,1700370051
153,labrador city,52.9463,-66.9114,8.51,92,100,0.0,CA,1700370051
154,kletskaya,49.3145,43.0584,31.64,85,100,15.05,RU,1700370052
155,petropavlovsk-kamchatsky,53.0452,158.6483,32.59,98,100,13.0,RU,1700370053
156,aasiaat,68.7098,-52.8699,29.01,87,100,13.56,GL,1700370053
157,lerwick,60.1545,-1.1494,45.36,93,100,30.94,GB,1700370054
158,kidal,18.4411,1.4078,69.03,20,41,9.84,ML,1700370051
159,enewetak,11.3474,162.3373,82.83,78,17,15.52,MH,1700370054
160,nicoya,10.1483,-85.452,74.41,94,99,1.52,CR,1700370055
161,lucerne valley,34.4439,-116.9678,57.06,93,4,6.62,US,1700370055
162,naze,28.3667,129.4833,65.32,60,99,13.15,JP,1700370056
163,akureyri,65.6835,-18.0878,24.73,93,75,1.14,IS,1700370056
164,ancud,-41.8697,-73.8203,51.17,83,100,12.21,CL,1700370057
165,axim,4.8699,-2.2405,76.39,92,31,3.58,GH,1700370058
166,launceston,-41.45,147.1667,74.84,40,93,21.85,AU,1700370058
167,port elizabeth,-33.918,25.5701,66.31,87,0,8.05,ZA,1700370059
168,klyuchi,52.2667,79.1667,30.15,69,100,21.52,RU,1700370059
169,buka,40.8108,69.1986,54.61,59,100,4.63,UZ,1700370060
170,kununurra,-15.7667,128.7333,103.98,29,40,8.05,AU,1700370061
171,atafu village,-8.5421,-172.5159,85.66,76,100,17.11,TK,1700370062
172,salaqi,40.5414,110.5108,48.94,19,5,4.7,CN,1700370062
173,sitka,57.0531,-135.33,34.18,78,100,1.59,US,1700370063
174,manokwari,-0.8667,134.0833,85.14,67,45,12.95,ID,1700370064
175,loen,7.7601,168.2307,83.21,78,20,14.41,MH,1700370064
176,caleta de carquin,-11.0925,-77.6267,65.1,86,100,11.54,PE,1700370065
177,tiksi,71.6872,128.8694,-24.18,100,48,5.95,RU,1700370065
178,carnarvon,-24.8667,113.6333,73.65,79,2,17.36,AU,1700370066
179,angaur state,6.906,134.13,84.65,77,94,16.89,PW,1700370066
180,maraba,-5.3686,-49.1178,78.98,89,100,0.0,BR,1700370067
181,northam,51.0333,-4.2167,57.65,89,34,36.8,GB,1700370067
182,isafjordur,66.0755,-23.124,40.95,79,100,3.04,IS,1700370067
183,pont rouge,48.8833,-72.0825,25.09,89,74,4.72,CA,1700370068
184,aweil,8.7682,27.4002,77.58,72,94,1.9,SS,1700370009
185,san patricio,28.017,-97.5169,69.66,83,38,5.01,US,1700370069
186,pulaski,34.7668,-92.3001,51.84,65,0,2.33,US,1700370069
187,martapura,-3.4167,114.85,89.69,62,40,11.5,ID,1700370070
188,bratsk,56.1325,101.6142,37.89,74,100,11.61,RU,1700369956
189,bandarbeyla,9.4942,50.8122,81.93,69,75,13.13,SO,1700370071
190,itarantim,-15.6597,-40.0656,67.64,97,11,2.82,BR,1700370071
191,san antonio de pale,-1.4014,5.6325,77.02,92,100,10.45,GQ,1700370072
192,vila franca do campo,37.7167,-25.4333,65.88,99,67,13.76,PT,1700370072
193,tura,25.5198,90.2201,77.45,61,1,6.76,IN,1700370073
194,horta,38.5333,-28.6333,58.01,73,56,8.99,PT,1700370073
195,zykovo,55.9519,93.1461,54.34,57,81,29.59,RU,1700370073
196,el progreso,15.4,-87.8,72.61,94,20,5.75,HN,1700369982
197,praia da vitoria,38.7333,-27.0667,61.05,77,40,13.18,PT,1700370074
198,mount isa,-20.7333,139.5,83.97,42,59,21.85,AU,1700370075
199,joshimath,30.5667,79.5667,65.89,21,0,5.86,IN,1700370075
200,st. john's,47.5649,-52.7093,53.67,94,100,25.32,CA,1700370055
201,saldanha,-33.0117,17.9442,59.05,85,100,5.66,ZA,1700370076
202,tangalle,6.024,80.7911,82.56,70,92,4.79,LK,1700369912
203,saint-joseph,-21.3667,55.6167,76.48,60,0,7.65,RE,1700370077
204,kone,-21.0595,164.8658,80.83,63,30,7.36,NC,1700370078
205,harstad,68.799,16.5293,29.16,94,100,5.01,NO,1700370078
206,vadso,70.0744,29.7487,17.76,86,40,9.22,NO,1700370079
207,hermanus,-34.4187,19.2345,65.44,71,100,4.5,ZA,1700370079
208,quellon,-43.1167,-73.6167,45.07,98,100,3.36,CL,1700370080
209,cozumel,20.5083,-86.9458,77.95,82,20,3.8,MX,1700370028
210,sakon nakhon,17.3333,103.8333,78.71,39,17,5.86,TH,1700370081
211,zara,44.1197,15.2422,36.21,87,0,4.61,HR,1700370081
212,alaghsas,17.0187,8.0168,71.19,24,93,10.22,NE,1700370082
213,thunder bay,48.4001,-89.3168,33.78,59,100,6.91,CA,1700369825
214,red deer,52.2668,-113.802,38.59,86,0,4.61,CA,1700370078
215,katsuura,35.1333,140.3,62.35,59,21,5.84,JP,1700370083
216,nar'yan-mar,67.6713,53.087,5.11,97,62,8.01,RU,1700370084
217,ayancik,41.9447,34.5861,53.67,72,97,9.51,TR,1700370084
218,oruro,-17.9833,-67.15,53.33,17,67,12.44,BO,1700370085
219,choele choel,-39.2667,-65.6833,57.0,43,0,22.68,AR,1700370086
220,debark',13.1561,37.8981,55.56,76,99,2.62,ET,1700370086
221,sanctuary point,-35.1114,150.629,81.19,58,23,19.64,AU,1700370087
222,lionel town,17.8101,-77.2406,82.29,89,92,4.41,JM,1700370087
223,firmat,-33.4594,-61.4832,57.9,31,17,8.08,AR,1700370088
224,jayapura,-2.5333,140.7,92.59,74,67,11.5,ID,1700370088
225,meijel,51.3443,5.8855,55.96,91,80,19.19,NL,1700370089
226,bodaybo,57.8506,114.1933,25.95,88,100,2.33,RU,1700370089
227,hami,42.8,93.45,43.93,31,5,3.2,CN,1700370090
228,rio do sul,-27.2142,-49.6431,65.08,92,58,1.52,BR,1700370090
229,sinan,34.8262,126.1086,59.11,64,5,20.11,KR,1700370091
230,gao,16.6362,1.637,70.52,17,14,12.41,ML,1700370091
231,yuzhno-kurilsk,44.0306,145.8556,42.37,84,94,28.92,RU,1700370092
232,coquimbo,-29.9533,-71.3436,56.93,94,0,2.3,CL,1700370093
233,san luis,-33.295,-66.3356,62.47,35,46,7.58,AR,1700370093
234,college,64.8569,-147.8028,7.12,83,100,3.44,US,1700370094
235,kincardine,56.0667,-3.7167,51.93,95,100,13.4,GB,1700370096
236,mhamid,29.82,-5.72,61.14,25,1,4.94,MA,1700370096
237,puerto colombia,10.9878,-74.9547,78.89,92,100,12.26,CO,1700370098
238,barra de santo antonio,-9.4047,-35.5072,72.68,87,7,7.63,BR,1700370098
239,moranbah,-22.0016,148.0466,92.89,27,58,19.01,AU,1700370099
240,longyearbyen,78.2186,15.6401,-4.22,92,76,3.15,SJ,1700370099
241,lagunas,-5.2269,-75.6753,81.52,62,57,2.17,PE,1700370100
242,makokou,0.5738,12.8642,69.35,100,93,2.48,GA,1700370102
243,sade,11.3595,10.6732,67.03,24,94,9.01,NG,1700370102
244,tolanaro,-25.0319,46.9987,78.87,83,20,16.11,MG,1700370103
245,port douglas,-16.4833,145.4667,80.74,63,24,7.0,AU,1700370104
246,traverse city,44.7631,-85.6206,46.6,86,0,5.75,US,1700369890
247,antofagasta,-23.65,-70.4,61.88,88,25,1.5,CL,1700370049
248,kashgar,39.4547,75.9797,45.61,36,20,4.47,CN,1700370105
249,ust-nera,64.5667,143.2,-13.47,100,97,0.22,RU,1700370106
250,baiti,13.745,-14.7482,75.2,52,61,6.76,SN,1700370106
251,hasaki,35.7333,140.8333,66.6,41,3,7.52,JP,1700370108
252,san miguel de cauri,-10.1,-76.5833,46.22,89,99,0.83,PE,1700370109
253,kiunga,-6.1219,141.2906,84.29,77,99,3.47,PG,1700370109
254,mount pearl,47.5166,-52.7813,52.84,94,100,25.32,CA,1700370110
255,mount darwin,-16.7725,31.5838,77.63,39,0,5.14,ZW,1700370110
256,anupgarh,29.1911,73.2086,75.45,26,0,5.7,IN,1700370112
257,hit,33.6416,42.8251,65.44,56,0,14.67,IQ,1700370113
258,isangel,-19.55,169.2667,78.91,74,74,10.8,VU,1700370114
259,iskateley,67.6803,53.1512,5.02,97,57,8.01,RU,1700370114
260,eforie sud,44.0229,28.6494,36.81,91,100,41.18,RO,1700370115
261,kerikeri,-35.2268,173.9474,70.92,87,55,3.0,NZ,1700370115
262,geneina,13.45,22.45,66.02,25,100,13.53,SD,1700370115
263,smara,26.7384,-11.6719,66.6,23,0,5.91,EH,1700370116
264,chibougamau,49.9168,-74.3659,22.62,100,100,4.61,CA,1700370116
265,tortoli,39.9256,9.6572,56.32,74,11,4.74,IT,1700370117
266,leesville,31.1435,-93.261,53.42,73,64,4.47,US,1700370118
267,pimentel,-6.8367,-79.9342,68.29,77,0,14.97,PE,1700370118
268,cuajinicuilapa,16.4667,-98.4167,77.4,92,16,3.04,MX,1700370118
269,merizo village,13.2658,144.6691,86.58,88,88,15.26,GU,1700370119
270,ust'-kulom,61.6864,53.6902,18.3,91,100,7.4,RU,1700370119
271,buala,-8.145,159.5921,84.78,73,30,8.32,SB,1700370120
272,nizhniy odes,63.6445,54.856,13.59,95,99,7.72,RU,1700370120
273,conception bay south,47.4999,-52.9981,53.44,94,100,24.49,CA,1700370088
274,toyooka,35.5333,134.8333,59.05,47,40,2.3,JP,1700370121
275,la'ie,21.6477,-157.9253,78.76,72,99,3.91,US,1700369918
276,fort stockton,30.894,-102.8793,60.85,82,0,17.27,US,1700370122
277,georgetown,5.4112,100.3354,87.75,66,20,10.36,MY,1700370017
278,sur,22.5667,59.5289,78.17,64,0,3.0,OM,1700370123
279,long beach,33.767,-118.1892,65.88,93,75,3.44,US,1700369828
280,sol'tsy,58.1239,30.3238,22.03,96,100,3.18,RU,1700370124
281,fort bragg,35.139,-79.006,55.49,67,0,4.61,US,1700370124
282,fortuna,40.5982,-124.1573,53.94,93,75,0.0,US,1700370125
283,urangan,-25.3,152.9,74.23,69,100,11.39,AU,1700370125
284,latnaya,51.6586,38.9011,28.33,79,53,8.95,RU,1700370125
285,tobelo,1.7284,128.0095,83.97,73,75,3.0,ID,1700370126
286,haiku-pauwela,20.9219,-156.3051,74.25,77,63,1.01,US,1700370127
287,ilhabela,-23.7781,-45.3581,75.99,94,100,14.36,BR,1700370127
288,sisimiut,66.9395,-53.6735,31.42,81,98,28.54,GL,1700370128
289,toliara,-23.35,43.6667,83.28,57,1,3.24,MG,1700370129
290,weno,7.4515,151.8468,83.75,74,62,7.2,FM,1700370129
291,broome,42.2506,-75.833,35.67,81,8,1.99,US,1700370130
292,san juan,-31.5375,-68.5364,66.51,22,3,2.77,AR,1700370130
293,mozhga,56.4447,52.2276,19.99,71,6,8.05,RU,1700370131
294,grand falls-windsor,48.9332,-55.6649,53.51,94,100,11.99,CA,1700369977
295,dehloran,32.6941,47.2679,67.95,61,0,6.53,IR,1700370132
296,grand-popo,6.2804,1.8225,75.88,90,87,4.14,BJ,1700370133
297,ulladulla,-35.35,150.4667,95.77,31,42,8.03,AU,1700370133
298,progreso,21.2833,-89.6667,75.11,77,94,5.5,MX,1700370133
299,ruston,32.5232,-92.6379,44.42,93,0,0.0,US,1700370134
300,rampur,28.8167,79.0333,73.9,44,0,5.68,IN,1700370134
301,farap,39.1704,63.6116,58.06,35,77,10.51,TM,1700370135
302,kingston,17.997,-76.7936,81.55,90,40,6.91,JM,1700369901
303,rio grande,-32.035,-52.0986,58.95,78,22,4.85,BR,1700370136
304,priargunsk,50.3691,119.1012,18.23,85,24,2.86,RU,1700370136
305,ginir,7.1333,40.7,60.19,93,100,6.91,ET,1700370137
306,wajir,1.7471,40.0573,75.34,88,100,3.67,KE,1700370138
307,san pedro pochutla,15.7333,-96.4667,74.05,93,18,2.44,MX,1700370138
308,valparaiso,-33.0393,-71.6273,51.44,87,0,4.61,CL,1700370064
309,itoman,26.1247,127.6694,73.78,49,20,12.66,JP,1700370139
310,birao,10.2849,22.7882,71.33,37,98,6.6,CF,1700370140
311,urumqi,43.801,87.6005,36.55,70,98,2.24,CN,1700370140
312,fort mcmurray,56.7268,-111.381,35.19,93,100,6.91,CA,1700370141
313,ambilobe,-13.2,49.05,87.58,50,0,8.46,MG,1700370141
314,walvis bay,-22.9575,14.5053,63.09,88,0,4.61,NA,1700370142
315,sodankyla,67.4167,26.6,-8.37,100,91,0.89,FI,1700370143
316,wickenburg,33.9686,-112.7296,61.45,56,0,5.93,US,1700370143
317,takoradi,4.8845,-1.7554,78.08,87,41,5.82,GH,1700370144
318,arteche,12.2645,125.4048,80.76,89,100,13.22,PH,1700370145
319,bondo,3.8146,23.6866,71.29,99,100,1.63,CD,1700370145
320,verkhnevilyuysk,63.4453,120.3167,5.52,98,98,2.35,RU,1700370146
321,mayya,61.7333,130.2811,-5.69,95,95,3.15,RU,1700370146
322,zungeru,9.8128,6.1558,72.55,21,100,4.03,NG,1700370125
323,gadzhiyevo,69.2551,33.3362,11.17,97,73,7.16,RU,1700370147
324,lebu,-37.6167,-73.65,52.05,84,23,4.29,CL,1700370125
325,lorengau,-2.0226,147.2712,84.92,72,9,11.34,PG,1700370082
326,egilsstadir,65.2653,-14.3948,37.31,87,75,9.22,IS,1700370148
327,ormara,25.2088,64.6357,76.15,52,0,2.91,PK,1700370139
328,stephenville,32.2207,-98.2023,56.19,90,0,3.44,US,1700370150
329,crane,31.3974,-102.3501,60.76,71,78,16.04,US,1700370150
330,lata,40.1629,-8.3327,58.91,92,33,2.39,PT,1700370151
331,laela,-8.5667,32.05,69.87,64,74,6.87,TZ,1700370151
332,rongelap,11.1635,166.8941,82.56,78,28,15.84,MH,1700370152
333,el porvenir,13.7617,-87.3458,70.93,88,26,6.24,HN,1700370152
334,puerto baquerizo moreno,-0.9,-89.6,72.05,83,15,7.43,EC,1700370153
335,malango,-2.9627,119.9001,77.5,94,60,0.94,ID,1700370154
336,colonia,50.9333,6.95,56.43,85,75,8.05,DE,1700370047
337,cabedelo,-6.9811,-34.8339,79.47,88,2,5.12,BR,1700370056
338,altai,46.3722,96.2583,34.86,53,3,3.24,MN,1700370155
339,gimbi,9.1667,35.8333,61.09,88,81,1.12,ET,1700370157
340,kisoro,-1.2854,29.685,60.64,87,36,3.09,UG,1700370158
341,kamina,-8.7386,24.9906,68.31,92,100,0.65,CD,1700370159
342,kapa'a,22.0752,-159.319,78.78,86,87,1.01,US,1700370159
343,elmadag,39.9208,33.2308,33.66,83,95,17.11,TR,1700370160
344,prince rupert,54.3161,-130.3201,44.69,91,100,9.22,CA,1700370160
345,tahoua,14.8888,5.2692,73.13,20,94,11.07,NE,1700370161
346,port-gentil,-0.7193,8.7815,76.59,91,100,7.61,GA,1700370161
347,constantia,44.1833,28.65,36.7,83,100,33.35,RO,1700370067
348,kangding,30.0513,101.9603,53.62,59,22,3.85,CN,1700370162
349,darab,28.7519,54.5444,63.39,51,19,2.62,IR,1700370163
350,hammerfest,70.6634,23.6821,27.05,74,40,10.36,NO,1700370048
351,qui nhon,13.7667,109.2333,74.98,84,100,19.75,VN,1700370164
352,minab,27.1467,57.0801,76.48,61,0,1.77,IR,1700370165
353,huoqiu chengguanzhen,32.3547,116.2939,68.4,34,0,11.63,CN,1700370166
354,xiva,41.3783,60.3639,44.58,50,15,14.41,UZ,1700370166
355,cayeli,41.0923,40.7292,64.92,72,100,6.71,TR,1700370167
356,kalmunai,7.4167,81.8167,84.45,72,94,5.88,LK,1700370167
357,changji,44.0167,87.3167,39.99,70,99,2.24,CN,1700370168
358,sinabang,2.4803,96.3801,82.47,78,97,3.33,ID,1700370168
359,villamontes,-21.25,-63.5,80.94,63,82,4.47,BO,1700370169
360,rakops,-21.0167,24.3333,82.45,28,44,11.25,BW,1700370170
361,alo,7.4178,6.7371,77.22,77,93,1.77,NG,1700370170
362,kansanshi,-12.0951,26.4273,70.43,66,98,4.07,ZM,1700370170
363,kirensk,57.7853,108.1119,27.97,81,100,11.01,RU,1700370171
364,coalcoman de vazquez pallares,18.7833,-103.15,70.39,99,76,3.13,MX,1700370058
365,yulinshi,38.2906,109.7494,47.77,20,0,0.38,CN,1700370172
366,leava,-14.3,-178.1667,83.32,82,36,20.62,WF,1700370172
367,chimore,-16.9833,-65.1333,86.88,51,100,2.19,BO,1700370173
368,syktyvkar,61.6764,50.8099,20.93,92,100,4.47,RU,1700370174
369,tazacorte,28.629,-17.9293,73.15,31,0,8.05,ES,1700370175
370,ola,59.5833,151.2833,23.02,74,100,12.28,RU,1700370176
371,ketchikan,55.3422,-131.6461,42.78,98,100,6.49,US,1700370177
372,lisala,2.15,21.5167,70.7,99,100,2.28,CD,1700370178
373,gandarbal,34.2333,74.7833,57.78,23,100,4.36,IN,1700370179
374,choix,26.7092,-108.3219,76.21,55,35,2.42,MX,1700370179
375,de aar,-30.6497,24.0123,69.58,30,0,2.3,ZA,1700370180
376,tazovsky,67.4667,78.7,-7.78,98,94,8.1,RU,1700370180
377,dakhla,23.6848,-15.958,71.24,46,0,9.8,EH,1700370181
378,tres palos,18.1833,-101.6167,74.19,98,46,2.17,MX,1700370182
379,pekanbaru,0.5333,101.45,89.92,62,40,6.91,ID,1700370182
380,santana,-0.0583,-51.1817,82.58,78,0,9.22,BR,1700370183
381,taltal,-25.4,-70.4833,59.54,85,58,2.35,CL,1700370021
382,mammoth lakes,37.6485,-118.9721,36.25,88,75,3.44,US,1700370003
383,gobabis,-22.45,18.9667,75.15,42,100,12.48,NA,1700370185
384,yeppoon,-23.1333,150.7333,73.18,92,100,13.82,AU,1700370185
385,jind,29.3167,76.3167,76.59,35,0,6.49,IN,1700370186
386,lyudinovo,53.8664,34.4478,19.54,80,73,3.47,RU,1700370187
387,borgarnes,64.5383,-21.9206,28.45,84,99,5.08,IS,1700369995
388,tekeli,44.83,78.8239,42.55,61,100,6.93,KZ,1700370188
389,punta arenas,-53.15,-70.9167,37.51,60,0,12.66,CL,1700370025
390,fuglafjordur,62.244,-6.814,46.87,92,100,30.78,FO,1700370188
391,bima,-8.4667,118.7167,93.54,46,21,1.07,ID,1700370189
392,mili,6.0815,171.735,83.66,76,95,13.15,MH,1700370190
393,myshkin,57.7897,38.4545,21.09,85,99,4.79,RU,1700370190
394,karratha,-20.7377,116.8463,95.99,32,39,12.91,AU,1700370191
395,amursk,50.2261,136.8994,25.99,93,100,6.98,RU,1700369996
396,tommot,58.9564,126.2925,22.17,94,100,4.47,RU,1700370192
397,lompoc,34.6391,-120.4579,60.78,87,100,8.99,US,1700370192
398,huilong,31.8111,121.655,61.75,32,0,9.33,CN,1700370193
399,kayangel,8.0823,134.7173,84.04,78,85,14.45,PW,1700370193
400,mocorito,25.4833,-107.9167,76.21,67,23,1.23,MX,1700370194
401,rouissat,31.9243,5.3502,53.67,50,0,4.61,DZ,1700370194
402,inirida,3.8653,-67.9239,77.58,93,98,3.2,CO,1700370195
403,hobbs,32.7026,-103.136,52.39,83,100,12.66,US,1700370195
404,mahibadhoo,3.7833,72.9667,83.17,73,46,5.37,MV,1700370121
405,coahuayana de hidalgo,18.7,-103.6583,79.02,90,72,1.83,MX,1700370196
406,novodvinsk,64.4165,40.8122,22.78,92,77,8.61,RU,1700370197
407,sandnessjoen,66.0217,12.6316,23.52,87,99,11.92,NO,1700370197
408,utete,-7.986,38.758,80.26,82,66,4.43,TZ,1700370198
409,miracema do tocantins,-9.5618,-48.3967,80.53,64,77,1.03,BR,1700370199
410,kirkwall,58.9848,-2.9587,46.96,100,75,0.0,GB,1700370200
411,tandalti,13.0167,31.8667,78.1,27,100,12.28,SD,1700370200
412,afaahiti,-17.75,-149.2833,80.47,80,83,21.68,PF,1700370201
413,baikonur,45.6167,63.3167,39.43,57,6,4.7,KZ,1700370201
414,bamboo flat,11.7,92.7167,86.09,74,40,8.05,IN,1700370202
415,westerland,54.9079,8.3033,42.82,100,100,16.11,DE,1700370203
416,lubang,13.8584,120.124,82.87,71,29,20.15,PH,1700370203
417,hirara,24.8,125.2833,75.06,64,40,16.11,JP,1700370204
418,howrah,22.5892,88.3103,80.6,74,40,8.05,IN,1700370204
419,trairi,-3.2778,-39.2689,79.02,84,46,8.46,BR,1700370144
420,culpeper,38.5004,-77.9664,43.43,65,0,1.01,US,1700370205
421,kalat,29.0225,66.5916,53.1,51,6,2.84,PK,1700370206
422,el jadid,33.2549,-8.506,63.68,87,0,1.59,MA,1700370190
423,fale old settlement,-9.3852,-171.2468,85.12,76,56,18.59,TK,1700370207
424,pago pago,-14.2781,-170.7025,83.39,79,75,14.97,AS,1700370207
425,laghouat,33.8,2.8651,52.75,57,0,1.7,DZ,1700370208
426,thurso,58.5927,-3.5259,48.45,91,100,6.62,GB,1700370208
427,kigoma,-4.8769,29.6267,76.32,75,69,4.21,TZ,1700370209
428,bikenibeu village,1.3673,173.1241,87.76,74,20,4.61,KI,1700370209
429,voznesenskoye,54.89,42.7569,19.24,79,5,1.99,RU,1700370210
430,feodosiya,45.0333,35.3833,49.41,91,100,37.11,UA,1700370210
431,cabo san lucas,22.8909,-109.9124,80.76,82,1,5.1,MX,1700370211
432,port blair,11.6667,92.75,86.04,74,40,8.05,IN,1700370212
433,ghat,24.9647,10.1728,58.82,37,0,1.99,LY,1700370212
434,antsiranana,-12.2787,49.2917,83.16,65,20,13.8,MG,1700369960
435,noyabrsk,63.1994,75.4507,-3.68,98,75,11.63,RU,1700370213
436,majene,-3.5403,118.9707,87.31,63,9,7.31,ID,1700370214
437,minot air force base,48.4209,-101.3391,32.18,80,0,5.75,US,1700370214
438,soalkuchi,26.1681,91.5711,76.98,78,20,4.61,IN,1700370215
439,thoothukudi,8.8054,78.1453,77.29,94,100,2.3,IN,1700370215
440,sao joao da barra,-21.6403,-41.0511,74.79,88,28,10.07,BR,1700370216
441,taulaga,-11.0553,-171.0883,84.42,76,13,17.94,AS,1700370216
442,santo antonio,-6.3106,-35.4789,73.26,93,9,4.29,BR,1700370217
443,ituango,7.1712,-75.764,62.37,98,99,2.3,CO,1700370217
444,illizi,26.4833,8.4667,58.8,33,0,8.41,DZ,1700370218
445,kinana,14.0361,33.1712,78.06,29,100,11.68,SD,1700370218
446,la passe,45.5549,-0.8967,59.99,92,49,11.92,FR,1700370218
447,klaksvik,62.2266,-6.589,47.32,91,100,33.4,FO,1700370219
448,tindouf,27.6711,-8.1474,57.65,26,0,4.61,DZ,1700369977
449,arkhangel'sk,64.5401,40.5433,23.13,92,100,12.46,RU,1700370130
450,flying fish cove,-10.4217,105.6791,80.28,78,100,12.66,CX,1700370220
451,saint-pierre,-21.3393,55.4781,77.58,65,20,12.66,RE,1700370220
452,lively,46.4334,-81.1498,34.02,74,64,5.93,CA,1700370221
453,maun,-19.9833,23.4167,83.97,25,62,6.13,BW,1700370221
454,hinton,53.4001,-117.5857,35.65,77,90,5.01,CA,1700370154
455,andrews,32.3187,-102.5457,54.0,100,100,9.22,US,1700370222
456,mogok,22.9167,96.5,69.01,76,89,1.66,MM,1700370223
457,saint-philippe,-21.3585,55.7679,76.59,63,0,7.78,RE,1700370223
458,jackson,42.4165,-122.8345,46.85,86,100,1.01,US,1700370007
459,akjoujt,19.6969,-14.4164,74.89,18,5,12.17,MR,1700370224
460,mitu,1.1983,-70.1733,73.47,98,90,1.99,CO,1700370004
461,kruisfontein,-34.0033,24.7314,65.79,59,86,2.48,ZA,1700370225
462,richfield,44.8833,-93.283,47.84,73,0,0.0,US,1700370200
463,la ronge,55.1001,-105.2842,37.65,81,75,5.75,CA,1700370226
464,selfoss,63.9331,-20.9971,28.04,66,85,6.6,IS,1700370227
465,el alto,-4.2714,-81.2147,67.57,83,99,11.56,PE,1700370227
466,alofi,-19.0595,-169.9187,80.49,69,14,13.8,NU,1700370228
467,muli,2.9167,73.5667,82.99,73,72,7.36,MV,1700370228
468,codrington,-38.2667,141.9667,65.17,58,100,10.89,AU,1700370229
469,monroeville,40.4212,-79.7881,37.65,77,0,5.75,US,1700370229
470,la sarre,48.8002,-79.1996,28.26,94,98,6.82,CA,1700370168
471,tromso,69.6496,18.957,28.42,86,75,9.22,NO,1700370230
472,cajati,-24.7361,-48.1228,70.7,94,97,0.76,BR,1700370231
473,utrik,11.2278,169.8474,82.26,77,19,15.48,MH,1700370231
474,barmer,25.75,71.3833,76.95,24,0,7.0,IN,1700370232
475,holyhead,53.3062,-4.6321,55.4,82,100,27.63,GB,1700370232
476,yuscaran,13.9333,-86.85,67.24,91,35,4.81,HN,1700370233
477,falun,60.6036,15.626,3.61,89,90,1.03,SE,1700370233
478,kokkola,63.8385,23.1307,27.93,95,100,10.36,FI,1700370234
479,rikaze,29.25,88.8833,46.27,13,0,1.45,CN,1700370235
480,basco,20.4487,121.9702,74.57,61,93,20.36,PH,1700370235
481,princeville,45.7668,-61.2985,57.61,95,100,20.71,CA,1700370235
482,leninskoye,41.7589,69.3864,52.81,72,99,3.56,KZ,1700370236
483,la puebla del rio,37.2679,-6.0626,57.94,83,25,5.17,ES,1700370236
484,wenling,28.3669,121.36,60.6,47,5,5.03,CN,1700370237
485,yaren,-0.5472,166.916,84.49,71,12,6.6,NR,1700370237
486,qurayyat,31.3318,37.3428,53.78,94,0,0.0,SA,1700370237
487,sambhal,28.5833,78.55,75.18,43,0,6.02,IN,1700370238
488,nikol'sk,53.7189,46.0712,19.2,64,0,4.09,RU,1700370239
489,ambodifotatra,-16.9833,49.85,78.39,74,53,10.67,MG,1700370239
490,el fasher,13.6279,25.3494,68.07,24,100,6.53,SD,1700370240
491,zaozersk,69.4005,32.4476,8.37,98,70,6.24,RU,1700370240
492,greymouth,-42.4667,171.2,59.5,72,16,10.69,NZ,1700370241
493,kourou,5.1552,-52.6478,80.65,91,18,6.4,GF,1700370242
494,cova figueira,14.8905,-24.2934,73.92,65,99,7.09,CV,1700370242
495,lockhart,28.6194,-81.4426,67.05,94,32,1.01,US,1700370187
496,balurghat,25.2167,88.7667,79.65,63,0,6.04,IN,1700370243
497,durban,-29.8579,31.0292,72.52,83,11,1.57,ZA,1700370219
498,lashio,22.9333,97.75,73.71,64,69,0.65,MM,1700370245
499,sao felix do xingu,-6.6447,-51.995,76.96,71,100,1.57,BR,1700370246
500,nouadhibou,20.931,-17.0347,71.58,56,0,10.36,MR,1700370152
501,sarikei,2.1167,111.5167,86.32,77,88,3.56,MY,1700370247
502,acarau,-2.8856,-40.12,79.12,83,45,11.45,BR,1700370248
503,borogontsy,62.6683,131.1683,-9.04,97,100,4.68,RU,1700370248
504,kalemie,-5.9475,29.1947,74.93,74,83,1.07,CD,1700370249
505,sao gabriel da cachoeira,-0.1303,-67.0892,75.67,92,97,2.06,BR,1700370027
506,praya,14.9215,-23.5087,77.54,41,0,5.75,CV,1700370250
507,karymskoye,51.6167,114.35,31.46,66,24,2.77,RU,1700370250
508,longboat key,27.4125,-82.659,71.01,63,20,6.91,US,1700369741
509,carutapera,-1.195,-46.02,79.23,82,93,5.95,BR,1700370251
510,padang,-0.9492,100.3543,84.25,80,100,5.06,ID,1700370184
511,piacabucu,-10.4056,-36.4344,76.84,83,1,10.0,BR,1700370221
512,saint albans,51.75,-0.3333,53.4,89,75,14.97,GB,1700370145
513,al jubayl,27.0112,49.6583,72.9,56,86,3.74,SA,1700370253
514,queenstown,-31.8976,26.8753,67.8,48,65,3.38,ZA,1700370196
515,bandon,51.7469,-8.7425,51.39,90,100,27.31,IE,1700370254
516,al bawiti,28.3492,28.8659,62.87,72,0,12.15,EG,1700370254
517,binefar,41.8488,0.2968,41.77,66,11,2.13,ES,1700370255
518,terrace,54.5163,-128.6035,41.22,100,100,4.61,CA,1700370255
519,mokhotlong,-29.2894,29.0675,64.2,38,1,6.15,LS,1700370256
520,hunsur,12.3075,76.2878,76.66,61,100,9.66,IN,1700370257
521,zyryanskoye,56.8306,86.6258,37.13,95,99,23.2,RU,1700370257
522,igarka,67.4667,86.5833,-1.77,95,100,9.69,RU,1700370258
523,sasovo,54.3537,41.9199,19.13,83,4,1.01,RU,1700370258
524,la libertad,-2.2333,-80.9,71.96,85,100,10.71,EC,1700370259
525,gereida,11.2811,25.1414,72.66,20,97,12.48,SD,1700370259
526,adrar,20.5022,-10.0711,67.84,19,0,10.63,MR,1700370260
527,saurimo,-9.6608,20.3916,66.58,97,100,4.65,AO,1700370260
528,ban houakhoua,20.2453,100.4547,80.38,37,68,3.62,LA,1700370261
529,bonthe,7.5264,-12.505,75.36,91,99,4.99,SL,1700370261
530,yacimiento rio turbio,-51.5732,-72.3508,24.93,92,9,2.01,AR,1700370262
531,cannonvale,-20.2833,148.7,79.99,63,43,9.93,AU,1700370262
532,kailua-kona,19.6406,-155.9956,78.76,74,40,6.91,US,1700370263
533,chulakkurgan,43.765,69.1814,42.55,68,81,4.56,KZ,1700370264
534,palmer,42.1584,-72.3287,37.15,70,0,4.94,US,1700370264
535,sarmiento,-45.5882,-69.07,45.75,60,18,19.42,AR,1700370264
536,jinja,0.439,33.2032,67.95,91,33,1.16,UG,1700370265
537,rute,37.3269,-4.3683,52.39,75,2,3.98,ES,1700370265
538,cachoeiras de macacu,-22.4625,-42.6531,81.25,77,99,3.44,BR,1700370229
539,greenland,43.0362,-70.8328,35.85,77,0,4.61,US,1700370266
540,murun-kuren,49.6342,100.1625,36.9,49,38,2.93,MN,1700370267
541,kuta,-8.7233,115.1723,82.35,88,75,5.99,ID,1700370267
542,kenai,60.5544,-151.2583,-5.75,84,0,0.0,US,1700370268
543,dryden,49.7833,-92.7503,25.09,100,20,2.3,CA,1700370078
544,waynesville,35.4887,-82.9887,48.74,88,0,3.0,US,1700370268
545,susanville,40.4163,-120.653,46.24,83,100,15.99,US,1700370269
546,nuuk,64.1835,-51.7216,32.61,80,100,37.98,GL,1700370269
547,saynshand,44.8824,110.1163,36.86,49,25,6.58,MN,1700370271
548,gyeongju,35.8428,129.2117,53.8,46,2,8.79,KR,1700370271
549,al mijlad,11.0333,27.7333,76.3,22,97,9.66,SD,1700370272
550,port macquarie,-31.4333,152.9167,74.89,62,35,15.61,AU,1700370272
551,mirnyy,62.5353,113.9611,23.23,85,100,8.99,RU,1700370273
552,cipo,-11.0997,-38.5136,71.55,88,9,4.83,BR,1700370273
553,pisco,-13.7,-76.2167,66.25,88,100,1.14,PE,1700370274
554,port pirie,-33.1833,138.0167,75.67,45,28,19.35,AU,1700370274
555,mbale,1.0821,34.175,69.67,84,20,1.48,UG,1700370275
556,yudong,29.385,106.5194,63.5,64,47,1.72,CN,1700370275
557,tidjikja,18.5564,-11.4271,73.63,19,24,13.49,MR,1700370151
558,diu,20.7141,70.9822,84.22,42,0,9.57,IN,1700370276
559,xianning,29.8833,114.2167,68.58,33,6,1.16,CN,1700370043
560,al wajh,26.2455,36.4525,71.55,60,0,4.61,SA,1700370277
561,ouadda,8.0777,22.4007,69.51,58,93,4.03,CF,1700370278
562,flin flon,54.7682,-101.865,26.06,92,33,6.53,CA,1700370206
